[{"id":"1","v_id":"48024","name":"Herr Anton Procar","nameSub":"","address":"Grevener Damm 260","zipcode":"48282","city":"Emsdetten","country":"DE","lat":"52.14523390","lon":"7.56378170","machines":"3","phone":"0257296230203","email":"support@automatisch-dh.de","working_from":"00:00:00","working_till":"23:59:00","on_weekends":"saturday_sunday","date":"2024-11-12 15:28:38"},{"id":"2","v_id":"51735","name":"Herr Anton K\u00f6lpinsee 24\/7","nameSub":"","address":"Strandstra\u00dfe 24","zipcode":"17459","city":"Loddin","country":"DE","lat":"54.03454290","lon":"14.02114580","machines":"4","phone":"01708371055","email":"24-7-container@web.de","working_from":"00:00:00","working_till":"23:59:00","on_weekends":"saturday_sunday","date":"2024-11-12 15:28:38"},{"id":"3","v_id":"53036","name":"Herr Anton WAF","nameSub":"","address":"Markt 9","zipcode":"48231","city":"Warendorf","country":"DE","lat":"51.95210560","lon":"7.99052410","machines":"0","phone":"","email":"","working_from":"00:00:00","working_till":"23:59:00","on_weekends":"saturday_sunday","date":"2024-11-12 15:28:38"},{"id":"4","v_id":"54168","name":"Herr Anton Maislabyrinth","nameSub":"","address":"Heidkantweg 90","zipcode":"45721","city":"Haltern","country":"DE","lat":"51.71640000","lon":"7.07659000","machines":"3","phone":"","email":"","working_from":"00:00:00","working_till":"23:59:00","on_weekends":"saturday_sunday","date":"2024-11-12 15:28:38"},{"id":"5","v_id":"54169","name":"Franzen Cochem 0621","nameSub":"","address":"Oberbachstr. 10","zipcode":"56812","city":"Cochem","country":"DE","lat":"50.14396000","lon":"7.16199000","machines":"0","phone":"015123465308","email":"herr-anton@cochemer.com","working_from":"00:00:00","working_till":"23:59:00","on_weekends":"saturday_sunday","date":"2024-11-12 15:28:38"},{"id":"6","v_id":"55640","name":"Herr Anton Lengerich","nameSub":"","address":"M\u00fcnsterstra\u00dfe 46","zipcode":"49525","city":"Lengerich","country":"DE","lat":"52.18539790","lon":"7.84947980","machines":"1","phone":"","email":"","working_from":"00:00:00","working_till":"23:59:00","on_weekends":"saturday_sunday","date":"2024-11-12 15:28:38"},{"id":"7","v_id":"56178","name":"Herr Anton Greven","nameSub":"","address":"Nordwalder Str. 1","zipcode":"48268","city":"Greven","country":"DE","lat":"52.09271780","lon":"7.59943890","machines":"6","phone":"","email":"","working_from":"00:00:00","working_till":"23:59:00","on_weekends":"saturday_sunday","date":"2024-11-12 15:28:38"},{"id":"8","v_id":"56465","name":"Donuts Emsdetten","nameSub":"","address":"Rheiner Str. 13","zipcode":"48282","city":"Emsdetten","country":"DE","lat":"52.17577300","lon":"7.52826410","machines":"0","phone":"","email":"","working_from":"00:00:00","working_till":"23:59:00","on_weekends":"saturday_sunday","date":"2024-11-12 15:28:38"},{"id":"9","v_id":"56953","name":"Herr Anton H\u00fcnxe","nameSub":"","address":"Schwarzensteiner Weg 72","zipcode":"46569","city":"H\u00fcnxe","country":"DE","lat":"51.64977000","lon":"6.72465000","machines":"3","phone":"","email":"","working_from":"00:00:00","working_till":"23:59:00","on_weekends":"saturday_sunday","date":"2024-11-12 15:28:38"},{"id":"10","v_id":"57739","name":"Kayser","nameSub":"","address":"Passelweg 3","zipcode":"59889","city":"Eslohe","country":"DE","lat":"51.28993350","lon":"8.17721610","machines":"0","phone":"","email":"","working_from":"00:00:00","working_till":"23:59:00","on_weekends":"saturday_sunday","date":"2024-11-12 15:28:38"},{"id":"11","v_id":"58546","name":"Waldbad Emsdetten","nameSub":"","address":"Blumenstra\u00dfe 131 48282 Emsdetten","zipcode":"","city":"","country":"","lat":"52.15792021","lon":"7.54133124","machines":"2","phone":"","email":"","working_from":"00:00:00","working_till":"23:59:00","on_weekends":"saturday_sunday","date":"2024-11-12 15:28:38"},{"id":"12","v_id":"58716","name":"Evonic","nameSub":"","address":"Paul-Baumann-Stra\u00dfe 1","zipcode":"45772","city":"Marl","country":"DE","lat":"51.67879450","lon":"7.09491990","machines":"0","phone":"02349377331","email":"shop@camatec.de","working_from":"09:00:00","working_till":"18:00:00","on_weekends":"no","date":"2024-11-12 15:28:38"},{"id":"13","v_id":"59794","name":"Havixbeck","nameSub":"","address":"Hohenholter Str. 1","zipcode":"48329","city":"Havixbeck","country":"DE","lat":"51.97975860","lon":"7.43238680","machines":"3","phone":"05152157996","email":"kiotsekoglou@googlemail.com","working_from":"00:00:00","working_till":"23:59:00","on_weekends":"saturday_sunday","date":"2024-11-12 15:28:38"},{"id":"14","v_id":"60595","name":"Herr Anton Zw\u00f6nitz","nameSub":"","address":"Lange G. 15","zipcode":"08297","city":"Zw\u00f6nitz","country":"DE","lat":"50.62986000","lon":"12.81007000","machines":"3","phone":"","email":"","working_from":"00:00:00","working_till":"23:59:00","on_weekends":"saturday_sunday","date":"2024-11-12 15:28:38"},{"id":"15","v_id":"61262","name":"Herr Anton Weber","nameSub":"","address":"Regensburger Str. 5","zipcode":"92224","city":"Amberg","country":"DE","lat":"49.44415260","lon":"11.86538730","machines":"3","phone":"","email":"","working_from":"00:00:00","working_till":"23:59:00","on_weekends":"saturday_sunday","date":"2024-11-12 15:28:38"},{"id":"16","v_id":"61575","name":"Herr Anton Krummin 24\/7","nameSub":"","address":"Dorfstra\u00dfe 3","zipcode":"17440","city":"Krummin","country":"DE","lat":"54.04889050","lon":"13.84737950","machines":"0","phone":"01708371055","email":"24-7-container@web.de","working_from":"00:00:00","working_till":"23:59:00","on_weekends":"saturday_sunday","date":"2024-11-12 15:28:38"},{"id":"17","v_id":"61832","name":"Herr Anton 24\/7","nameSub":"","address":"Dorfstra\u00dfe 3","zipcode":"17440","city":"Krummin","country":"DE","lat":"54.04885580","lon":"13.84765570","machines":"0","phone":"01708371055","email":"24-7-container@web.de","working_from":"08:00:00","working_till":"21:00:00","on_weekends":"saturday_sunday","date":"2024-11-12 15:28:38"},{"id":"18","v_id":"62397","name":"FMO M\u00fcnster\/Osnabr\u00fcck","nameSub":"","address":"Airportallee 1","zipcode":"48268","city":"Greven","country":"DE","lat":"52.13085170","lon":"7.69373130","machines":"4","phone":"","email":"","working_from":"00:00:00","working_till":"23:59:00","on_weekends":"saturday_sunday","date":"2024-11-12 15:28:38"},{"id":"19","v_id":"65467","name":"Herr Anton H\u00fcnxe","nameSub":"","address":"Dinslakener Stra\u00dfe 31","zipcode":"46569","city":"H\u00fcnxe","country":"DE","lat":"51.65624930","lon":"6.75250680","machines":"0","phone":"","email":"","working_from":"00:00:00","working_till":"23:59:00","on_weekends":"saturday_sunday","date":"2024-11-12 15:28:38"},{"id":"20","v_id":"67608","name":"Mayen | Shop","nameSub":"","address":"Rosengasse 10","zipcode":"56727","city":"Mayen","country":"DE","lat":"50.32904820","lon":"7.22018890","machines":"5","phone":"015120124890","email":"bales@msr-company.de","working_from":"00:00:00","working_till":"23:59:00","on_weekends":"saturday_sunday","date":"2024-11-12 15:28:38"},{"id":"21","v_id":"68573","name":"Herr Anton TMTM B\u00fccker","nameSub":"","address":"M\u00fcnsterstra\u00dfe 12","zipcode":"48249","city":"D\u00fclmen","country":"DE","lat":"51.82945610","lon":"7.27920960","machines":"3","phone":"","email":"","working_from":"00:00:00","working_till":"23:59:00","on_weekends":"saturday_sunday","date":"2024-11-12 15:28:38"},{"id":"22","v_id":"68787","name":"Herr Anton SkyFly Magdeburg","nameSub":"","address":"Leipziger Ch 23","zipcode":"39118","city":"Magdeburg","country":"DE","lat":"52.09552680","lon":"11.62180260","machines":"3","phone":"","email":"","working_from":"00:00:00","working_till":"23:59:00","on_weekends":"saturday_sunday","date":"2024-11-12 15:28:38"},{"id":"23","v_id":"72335","name":"Marler Stern","nameSub":"","address":"Bergstra\u00dfe 228","zipcode":"45768","city":"Marl","country":"DE","lat":"51.65439990","lon":"7.09691690","machines":"3","phone":"","email":"","working_from":"00:00:00","working_till":"23:59:00","on_weekends":"saturday_sunday","date":"2024-11-12 15:28:38"},{"id":"24","v_id":"73620","name":"Herr Anton Jever","nameSub":"","address":"M\u00fchlenstr. 87","zipcode":"26441","city":"Jever","country":"DE","lat":"53.57421340","lon":"7.90438860","machines":"4","phone":"","email":"","working_from":"00:00:00","working_till":"23:59:00","on_weekends":"saturday_sunday","date":"2024-11-12 15:28:38"},{"id":"25","v_id":"78609","name":"Herr Anton Kersting","nameSub":"","address":"Haus Uhlenkotten 2","zipcode":"48159","city":"M\u00fcnster","country":"DE","lat":"51.99214770","lon":"7.57248940","machines":"2","phone":"015772453432","email":"frank_kersting@web.de","working_from":"00:00:00","working_till":"23:59:00","on_weekends":"saturday_sunday","date":"2024-11-12 15:28:38"},{"id":"26","v_id":"78611","name":"Herr Anton Mettingen","nameSub":"","address":"Bahnhofstra\u00dfe 18","zipcode":"49497","city":"Mettingen","country":"DE","lat":"52.31729780","lon":"7.78319660","machines":"3","phone":"05452973240","email":"johanna@stockreiter.de","working_from":"00:00:00","working_till":"23:59:00","on_weekends":"saturday_sunday","date":"2024-11-12 15:28:38"},{"id":"27","v_id":"78612","name":"Herr Anton Hannover","nameSub":"","address":"Schulenburger Landstra\u00dfe 139B","zipcode":"30165","city":"Hannover","country":"DE","lat":"52.41260570","lon":"9.70338180","machines":"2","phone":"0511789999","email":"joerg.waue@derspielpunkt.de","working_from":"00:00:00","working_till":"23:59:00","on_weekends":"saturday_sunday","date":"2024-11-12 15:28:38"},{"id":"28","v_id":"78614","name":"Herr Anton M\u00fcnster Wolf","nameSub":"","address":"Wolbecker Str. 87","zipcode":"48155","city":"M\u00fcnster","country":"DE","lat":"51.95590900","lon":"7.64483070","machines":"3","phone":"025192870290","email":"mail@herr-anton-muenster.de","working_from":"09:00:00","working_till":"18:00:00","on_weekends":"no","date":"2024-11-12 15:28:38"},{"id":"29","v_id":"78615","name":"Herr Anton Oldenburg","nameSub":"","address":"Donnerschweer Str. 214","zipcode":"26123","city":"Oldenburg","country":"DE","lat":"53.15107250","lon":"8.23699840","machines":"3","phone":"015174453408","email":"kiosksmart.oldenburg@gmail.com","working_from":"00:00:00","working_till":"23:59:00","on_weekends":"saturday_sunday","date":"2024-11-12 15:28:38"},{"id":"30","v_id":"79687","name":"Herr Anton Tecklenburg","nameSub":"","address":"Landrat-Schultz-Stra\u00dfe 16","zipcode":"49545","city":"Tecklenburg","country":"DE","lat":"52.21989370","lon":"7.81316630","machines":"2","phone":"","email":"","working_from":"00:00:00","working_till":"23:59:00","on_weekends":"saturday_sunday","date":"2024-11-12 15:28:38"},{"id":"31","v_id":"81188","name":"Herr Anton Bremen","nameSub":"","address":"Vor dem Steintor 93","zipcode":"28203","city":"Bremen","country":"DE","lat":"53.07210750","lon":"8.82855270","machines":"3","phone":"","email":"aymogmbh@gmail.com","working_from":"00:00:00","working_till":"23:59:00","on_weekends":"saturday_sunday","date":"2024-11-12 15:28:38"},{"id":"32","v_id":"81300","name":"Herr Anton Waue 4","nameSub":"","address":"Everner Str. 34","zipcode":"31275","city":"Lehrte","country":"DE","lat":"52.36764950","lon":"9.99330960","machines":"0","phone":"","email":"","working_from":"00:00:00","working_till":"23:59:00","on_weekends":"saturday_sunday","date":"2024-11-12 15:28:38"},{"id":"33","v_id":"81301","name":"Herr Anton Waue 5","nameSub":"","address":"Everner Str. 34","zipcode":"31275","city":"Lehrte","country":"DE","lat":"52.36764950","lon":"9.99330960","machines":"0","phone":"","email":"","working_from":"00:00:00","working_till":"23:59:00","on_weekends":"saturday_sunday","date":"2024-11-12 15:28:38"},{"id":"34","v_id":"81302","name":"Herr Anton Waue 6","nameSub":"","address":"Everner Str. 34","zipcode":"31275","city":"Lehrte","country":"DE","lat":"52.36764950","lon":"9.99330960","machines":"0","phone":"","email":"","working_from":"00:00:00","working_till":"23:59:00","on_weekends":"saturday_sunday","date":"2024-11-12 15:28:38"},{"id":"35","v_id":"82094","name":"Naturpott Borkenberge","nameSub":"","address":"Leversum 85","zipcode":"59348","city":"L\u00fcdinghausen","country":"DE","lat":"51.78115140","lon":"7.28073040","machines":"3","phone":"","email":"","working_from":"00:00:00","working_till":"23:59:00","on_weekends":"saturday_sunday","date":"2024-11-12 15:28:38"},{"id":"36","v_id":"83631","name":"24 Heaven GmbH","nameSub":"","address":"Leibstra\u00dfe 40","zipcode":"85540","city":"Haar","country":"DE","lat":"48.11010880","lon":"11.73327760","machines":"0","phone":"","email":"","working_from":"00:00:00","working_till":"23:59:00","on_weekends":"saturday_sunday","date":"2024-11-12 15:28:38"},{"id":"37","v_id":"83632","name":"M\u00fchlheim","nameSub":"","address":"Heeresstra\u00dfe 1","zipcode":"56218","city":"M\u00fclheim-K\u00e4rlich","country":"","lat":"50.39027075","lon":"7.49522410","machines":"3","phone":"","email":"","working_from":"00:00:00","working_till":"23:59:00","on_weekends":"saturday_sunday","date":"2024-11-12 15:28:38"},{"id":"38","v_id":"83635","name":"Koblenz | Shop","nameSub":"","address":"Rathauspassage 14","zipcode":"56068","city":"Koblenz","country":"DE","lat":"50.36030000","lon":"7.59700500","machines":"3","phone":"","email":"bales@msr-company.de","working_from":"00:00:00","working_till":"23:59:00","on_weekends":"saturday_sunday","date":"2024-11-12 15:28:38"},{"id":"39","v_id":"90765","name":"Heise & Wolff GbR","nameSub":"","address":"Lindenstra\u00dfe 17","zipcode":"39326","city":"Colbitz","country":"DE","lat":"52.31656680","lon":"11.60522820","machines":"0","phone":"","email":"","working_from":"00:00:00","working_till":"23:59:00","on_weekends":"saturday_sunday","date":"2024-11-12 15:28:38"},{"id":"40","v_id":"90767","name":"Waue 1","nameSub":"","address":"Everner Str. 37","zipcode":"31275","city":"Lehrte","country":"DE","lat":"52.36918020","lon":"9.99358340","machines":"1","phone":"","email":"","working_from":"00:00:00","working_till":"23:59:00","on_weekends":"saturday_sunday","date":"2024-11-12 15:28:38"},{"id":"41","v_id":"94508","name":"Fair","nameSub":"","address":"Nienburger Str. 35","zipcode":"49453","city":"Rehden","country":"DE","lat":"52.60955910","lon":"8.48478850","machines":"0","phone":"","email":"","working_from":"00:00:00","working_till":"23:59:00","on_weekends":"saturday_sunday","date":"2024-11-12 15:28:38"},{"id":"42","v_id":"94513","name":"Fair","nameSub":"","address":"Nienburger Str. 35","zipcode":"49453","city":"Rehden","country":"DE","lat":"52.60955910","lon":"8.48478850","machines":"3","phone":"","email":"","working_from":"00:00:00","working_till":"23:59:00","on_weekends":"saturday_sunday","date":"2024-11-12 15:28:38"},{"id":"43","v_id":"95468","name":"Herr Anton Handter 2","nameSub":"","address":"Schuhhagen 10","zipcode":"17489","city":"Greifswald","country":"DE","lat":"54.09620710","lon":"13.38391240","machines":"0","phone":"","email":"","working_from":"00:00:00","working_till":"23:59:00","on_weekends":"saturday_sunday","date":"2024-11-12 15:28:38"},{"id":"44","v_id":"95469","name":"Herr Anton Handter 4","nameSub":"","address":"Schuhhagen 10","zipcode":"17489","city":"Greifswald","country":"DE","lat":"54.09620710","lon":"13.38391240","machines":"0","phone":"","email":"","working_from":"00:00:00","working_till":"23:59:00","on_weekends":"saturday_sunday","date":"2024-11-12 15:28:38"},{"id":"45","v_id":"95470","name":"Herr Anton Handter 3","nameSub":"","address":"Schuhhagen 10","zipcode":"17489","city":"Greifswald","country":"DE","lat":"54.09620710","lon":"13.38391240","machines":"0","phone":"","email":"","working_from":"00:00:00","working_till":"23:59:00","on_weekends":"saturday_sunday","date":"2024-11-12 15:28:38"},{"id":"46","v_id":"95472","name":"Herr Anton Handter 1","nameSub":"","address":"Schuhhagen 10","zipcode":"17489","city":"Greifswald","country":"DE","lat":"54.09620710","lon":"13.38391240","machines":"0","phone":"","email":"","working_from":"00:00:00","working_till":"23:59:00","on_weekends":"saturday_sunday","date":"2024-11-12 15:28:38"},{"id":"47","v_id":"95476","name":"Herr Anton Handtr 3","nameSub":"","address":"Schuhhagen 10","zipcode":"17489","city":"Greifswald","country":"DE","lat":"54.09620710","lon":"13.38391240","machines":"0","phone":"","email":"","working_from":"00:00:00","working_till":"23:59:00","on_weekends":"saturday_sunday","date":"2024-11-12 15:28:39"},{"id":"48","v_id":"95709","name":"Herr Anton Greifswald","nameSub":"","address":"Schuhhagen 10","zipcode":"17489","city":"Greifswald","country":"DE","lat":"54.09617550","lon":"13.38388070","machines":"3","phone":"","email":"","working_from":"00:00:00","working_till":"23:59:00","on_weekends":"saturday_sunday","date":"2024-11-12 15:28:39"},{"id":"49","v_id":"96201","name":"Andernach | Altenzentrum","nameSub":"","address":"Theodor-Heuss-Stra\u00dfe 6-12","zipcode":"56626","city":"Andernach","country":"DE","lat":"50.41969080","lon":"7.40210090","machines":"1","phone":"","email":"bales@msr-company.de","working_from":"09:00:00","working_till":"18:00:00","on_weekends":"saturday_sunday","date":"2024-11-12 15:28:39"},{"id":"50","v_id":"96202","name":"Andernach | Tipico","nameSub":"","address":"Koblenzer Str. 41","zipcode":"56626","city":"Andernach","country":"DE","lat":"50.43806870","lon":"7.41360100","machines":"0","phone":"","email":"bales@msr-company.de","working_from":"09:00:00","working_till":"18:00:00","on_weekends":"saturday_sunday","date":"2024-11-12 15:28:39"},{"id":"51","v_id":"96203","name":"Bell | Dorfplatz","nameSub":"","address":"Hummesgasse 4","zipcode":"56745","city":"Bell","country":"DE","lat":"50.38733470","lon":"7.23396180","machines":"1","phone":"","email":"","working_from":"09:00:00","working_till":"18:00:00","on_weekends":"no","date":"2024-11-12 15:28:39"},{"id":"52","v_id":"96204","name":"Darscheid | Median","nameSub":"","address":"Darscheid an der B 257","zipcode":"54552","city":"Darscheid","country":"DE","lat":"50.21720890","lon":"6.91575960","machines":"1","phone":"","email":"bales@msr-company.de","working_from":"09:00:00","working_till":"18:00:00","on_weekends":"saturday_sunday","date":"2024-11-12 15:28:39"},{"id":"53","v_id":"96205","name":"Dockweiler | Knusperh\u00e4uschen","nameSub":"","address":"Vor d. Dell 4","zipcode":"54552","city":"Dockweiler","country":"DE","lat":"50.24818700","lon":"6.79209500","machines":"1","phone":"","email":"bales@msr-company.de","working_from":"09:00:00","working_till":"18:00:00","on_weekends":"saturday_sunday","date":"2024-11-12 15:28:39"},{"id":"54","v_id":"96206","name":"Kaisersesch | Shop","nameSub":"","address":"Cochemer Str. 3","zipcode":"56759","city":"Kaisersesch","country":"DE","lat":"50.22958000","lon":"7.14105600","machines":"3","phone":"","email":"bales@msr-company.de","working_from":"09:00:00","working_till":"18:00:00","on_weekends":"saturday_sunday","date":"2024-11-12 15:28:39"},{"id":"55","v_id":"96207","name":"Kelberg | Shop","nameSub":"","address":"Mayener Str. 23","zipcode":"53539","city":"Kelberg","country":"DE","lat":"50.28461200","lon":"6.92095500","machines":"4","phone":"","email":"bales@msr-company.de","working_from":"09:00:00","working_till":"18:00:00","on_weekends":"saturday_sunday","date":"2024-11-12 15:28:39"},{"id":"56","v_id":"96208","name":"Koblenz | L\u00f6hrstra\u00dfe","nameSub":"","address":"L\u00f6hrstra\u00dfe 64","zipcode":"56068","city":"Koblenz","country":"DE","lat":"50.35823000","lon":"7.59246600","machines":"2","phone":"","email":"bales@msr-company.de","working_from":"09:00:00","working_till":"18:00:00","on_weekends":"saturday_sunday","date":"2024-11-12 15:28:39"},{"id":"57","v_id":"96209","name":"Koblenz | Rheinzeitung","nameSub":"","address":"Mittelrheinstra\u00dfe 2","zipcode":"56072","city":"Kobern-Gondorf","country":"DE","lat":"50.34722800","lon":"7.49294600","machines":"4","phone":"","email":"","working_from":"09:00:00","working_till":"18:00:00","on_weekends":"no","date":"2024-11-12 15:28:39"},{"id":"58","v_id":"96210","name":"K\u00fcrrenberg | Dorfplatz","nameSub":"","address":"Hauptstra\u00dfe 32","zipcode":"56727","city":"Mayen","country":"DE","lat":"50.33737000","lon":"7.15765000","machines":"1","phone":"","email":"bales@msr-company.de","working_from":"09:00:00","working_till":"18:00:00","on_weekends":"saturday_sunday","date":"2024-11-12 15:28:39"},{"id":"59","v_id":"96211","name":"Mayen | Awo","nameSub":"","address":"Pfarrer-Winand-Stra\u00dfe 1","zipcode":"56727","city":"Mayen","country":"DE","lat":"50.33183100","lon":"7.21597000","machines":"1","phone":"","email":"bales@msr-company.de","working_from":"09:00:00","working_till":"18:00:00","on_weekends":"saturday_sunday","date":"2024-11-12 15:28:39"},{"id":"60","v_id":"96212","name":"Mayen | Media Parts","nameSub":"","address":"Marktpl. 1","zipcode":"56727","city":"Mayen","country":"DE","lat":"50.32868100","lon":"7.22164300","machines":"1","phone":"","email":"bales@msr-company.de","working_from":"09:00:00","working_till":"18:00:00","on_weekends":"saturday_sunday","date":"2024-11-12 15:28:39"},{"id":"61","v_id":"96213","name":"Polch | Maifeldimbiss","nameSub":"","address":"Aspelerstra\u00dfe 15","zipcode":"56751","city":"Polch","country":"DE","lat":"50.30269900","lon":"7.31794100","machines":"1","phone":"","email":"bales@msr-company.de","working_from":"09:00:00","working_till":"18:00:00","on_weekends":"saturday_sunday","date":"2024-11-12 15:28:39"},{"id":"62","v_id":"96214","name":"Sankt Johann | Dorfplatz","nameSub":"","address":"Mayener Str. 37","zipcode":"56727","city":"St.","country":"DE","lat":"50.34744900","lon":"7.19698500","machines":"1","phone":"","email":"bales@msr-company.de","working_from":"09:00:00","working_till":"18:00:00","on_weekends":"saturday_sunday","date":"2024-11-12 15:28:39"},{"id":"63","v_id":"96215","name":"Trimbs | Shop","nameSub":"","address":"Hauptstra\u00dfe 49A","zipcode":"56753","city":"Trimbs","country":"DE","lat":"50.32642300","lon":"7.30196000","machines":"0","phone":"","email":"bales@msr-company.de","working_from":"09:00:00","working_till":"18:00:00","on_weekends":"saturday_sunday","date":"2024-11-12 15:28:39"},{"id":"64","v_id":"96216","name":"Virneburg | Gemeindehaus","nameSub":"","address":"In d. Au 3A","zipcode":"56729","city":"Virneburg","country":"DE","lat":"50.34197100","lon":"7.07701700","machines":"1","phone":"","email":"bales@msr-company.de","working_from":"09:00:00","working_till":"18:00:00","on_weekends":"saturday_sunday","date":"2024-11-12 15:28:39"},{"id":"65","v_id":"96217","name":"Volkesfeld | Gemeindehaus","nameSub":"","address":"Nettestra\u00dfe 1","zipcode":"56745","city":"Volkesfeld","country":"DE","lat":"50.38954400","lon":"7.15008800","machines":"1","phone":"","email":"bales@msr-company.de","working_from":"09:00:00","working_till":"18:00:00","on_weekends":"saturday_sunday","date":"2024-11-12 15:28:39"},{"id":"66","v_id":"96247","name":"Mayen | Trava","nameSub":"","address":"Boemundring 20","zipcode":"56727","city":"Mayen","country":"DE","lat":"50.32650500","lon":"7.22319540","machines":"1","phone":"","email":"","working_from":"09:00:00","working_till":"18:00:00","on_weekends":"saturday_sunday","date":"2024-11-12 15:28:39"},{"id":"67","v_id":"96248","name":"Mayen | Schwimmbad","nameSub":"","address":"Bachstra\u00dfe 44","zipcode":"56727","city":"Mayen","country":"DE","lat":"50.33430920","lon":"7.22051550","machines":"1","phone":"","email":"","working_from":"09:00:00","working_till":"18:00:00","on_weekends":"saturday_sunday","date":"2024-11-12 15:28:39"},{"id":"68","v_id":"96254","name":"Bendorf | AirBnB","nameSub":"","address":"Im Wenigerbachtal 13","zipcode":"56170","city":"Bendorf","country":"DE","lat":"50.42905440","lon":"7.58829110","machines":"2","phone":"","email":"","working_from":"09:00:00","working_till":"18:00:00","on_weekends":"saturday_sunday","date":"2024-11-12 15:28:39"},{"id":"69","v_id":"97983","name":"Alzheim | Alte Schule","nameSub":"","address":"Mayener Str. 28","zipcode":"56727","city":"Mayen","country":"DE","lat":"50.29630030","lon":"7.22968590","machines":"2","phone":"","email":"","working_from":"09:00:00","working_till":"18:00:00","on_weekends":"saturday_sunday","date":"2024-11-12 15:28:39"},{"id":"70","v_id":"99066","name":"Urmitz | Goethestra\u00dfe","nameSub":"","address":"Goethestra\u00dfe 31 a","zipcode":"56218","city":"M\u00fclheim-K\u00e4rlich","country":"DE","lat":"50.39967570","lon":"7.50778230","machines":"1","phone":"","email":"","working_from":"09:00:00","working_till":"18:00:00","on_weekends":"saturday_sunday","date":"2024-11-12 15:28:39"},{"id":"71","v_id":"99350","name":"Weibern | Freizeitbad","nameSub":"","address":"Hommersbergstra\u00dfe 95","zipcode":"56745","city":"Weibern","country":"DE","lat":"50.41343490","lon":"7.13070670","machines":"0","phone":"","email":"","working_from":"09:00:00","working_till":"18:00:00","on_weekends":"saturday_sunday","date":"2024-11-12 15:28:39"},{"id":"72","v_id":"99437","name":"Heise & Wolff GbR","nameSub":"","address":"Halberst\u00e4dter Str. 21","zipcode":"39112","city":"Magdeburg","country":"DE","lat":"52.11665150","lon":"11.61573070","machines":"3","phone":"","email":"","working_from":"00:00:00","working_till":"23:59:00","on_weekends":"saturday_sunday","date":"2024-11-12 15:28:39"},{"id":"73","v_id":"99577","name":"KO | MVZ Labor","nameSub":"","address":"Viktoriastra\u00dfe 35-39","zipcode":"56068","city":"Koblenz","country":"DE","lat":"50.35587690","lon":"7.59441320","machines":"1","phone":"","email":"","working_from":"09:00:00","working_till":"18:00:00","on_weekends":"saturday_sunday","date":"2024-11-12 15:28:39"},{"id":"74","v_id":"99705","name":"Heise & Wolff GbR","nameSub":"","address":"Halberst\u00e4dter Str. 21","zipcode":"39112","city":"Magdeburg","country":"DE","lat":"52.11665150","lon":"11.61573070","machines":"0","phone":"","email":"","working_from":"00:00:00","working_till":"23:59:00","on_weekends":"no","date":"2024-11-12 15:28:39"},{"id":"75","v_id":"100543","name":"Mayen Bernardshof | Container","nameSub":"","address":"Polcher Str. 1","zipcode":"56727","city":"Mayen","country":"DE","lat":"50.32685250","lon":"7.22582410","machines":"3","phone":"","email":"","working_from":"09:00:00","working_till":"18:00:00","on_weekends":"saturday_sunday","date":"2024-11-12 15:28:39"},{"id":"76","v_id":"101216","name":"M\u00fcnstermaifeld Shop","nameSub":"","address":"Obertorstra\u00dfe 3","zipcode":"56294","city":"M\u00fcnstermaifeld","country":"DE","lat":"50.24684350","lon":"7.36247750","machines":"3","phone":"","email":"","working_from":"09:00:00","working_till":"18:00:00","on_weekends":"saturday_sunday","date":"2024-11-12 15:28:39"},{"id":"77","v_id":"102874","name":"Herr Anton K\u00f6ln","nameSub":"","address":"An d. Schanz 2","zipcode":"50735","city":"K\u00f6ln","country":"DE","lat":"50.96087140","lon":"6.98234820","machines":"4","phone":"","email":"","working_from":"00:00:00","working_till":"23:59:00","on_weekends":"saturday_sunday","date":"2024-11-12 15:28:39"},{"id":"78","v_id":"102876","name":"Herr Anton Holdorf","nameSub":"","address":"Zum Hansa-Center 4","zipcode":"49451","city":"Holdorf","country":"DE","lat":"52.59800710","lon":"8.11813740","machines":"3","phone":"","email":"","working_from":"00:00:00","working_till":"23:59:00","on_weekends":"saturday_sunday","date":"2024-11-12 15:28:39"},{"id":"79","v_id":"102878","name":"Herr Anton Bad Waldsee","nameSub":"","address":"Burgstockstra\u00dfe 1","zipcode":"88339","city":"Bad","country":"DE","lat":"47.89916960","lon":"9.76755350","machines":"3","phone":"","email":"","working_from":"00:00:00","working_till":"23:59:00","on_weekends":"saturday_sunday","date":"2024-11-12 15:28:39"},{"id":"80","v_id":"103038","name":"KO | Karthause","nameSub":"","address":"Potsdamer Str. 37","zipcode":"56075","city":"Koblenz","country":"DE","lat":"50.34118600","lon":"7.57047980","machines":"3","phone":"","email":"","working_from":"09:00:00","working_till":"18:00:00","on_weekends":"saturday_sunday","date":"2024-11-12 15:28:39"},{"id":"81","v_id":"104691","name":"N\u00fcrburgring","nameSub":"","address":"Otto-Flimm-Stra\u00dfe","zipcode":"53520","city":"N\u00fcrburg","country":"","lat":"50.33342100","lon":"6.94843000","machines":"3","phone":"","email":"","working_from":"09:00:00","working_till":"18:00:00","on_weekends":"saturday_sunday","date":"2024-11-12 15:28:39"},{"id":"82","v_id":"104828","name":"Camatec","nameSub":"","address":"Steinring 65","zipcode":"44789","city":"Bochum","country":"DE","lat":"51.47073530","lon":"7.23026150","machines":"3","phone":"","email":"","working_from":"00:00:00","working_till":"23:59:00","on_weekends":"saturday_sunday","date":"2024-11-12 15:28:39"},{"id":"83","v_id":"104924","name":"Herr Anton Olsberg","nameSub":"","address":"Bahnhofstra\u00dfe","zipcode":"59939","city":"Olsberg","country":"DE","lat":"51.35802470","lon":"8.48704010","machines":"3","phone":"","email":"","working_from":"00:00:00","working_till":"23:59:00","on_weekends":"saturday_sunday","date":"2024-11-12 15:28:39"}]